{
    "dog_parks": [
    {
        "name": "Bishan Ang Mo Kio Park Dog Run",
        "address": "1384 Ang Mo Kio Ave 1",
        "area": "North",
        "hours": "24/7",
        "lighting": "7pm - 10pm",
        "pic": "../images/park/park1.jpeg",
        "amenities": [
            "Fountain", "Playground", "Washroom"
        ],
        "latitude": 1.3633964754734702,
        "longtitude": 103.84358391789335,
        "property": "Park"
    },
    {
        "name": "Bishan Summit Dog Park",
        "address": "119 Bishan Street 12",
        "area": "Central",
        "hours": "24/7",
        "lighting": "7pm - 10pm",
        "pic": "../images/park/park2.jpeg",
        "amenities": [
            "Fountain", "Washroom"
        ],
        "latitude": 1.3476979681227628,  
        "longtitude": 103.85085050852403,
        "property": "Park"
    },
    {
        "name": "Tampines Central Park Dog Run",
        "address": "Block 856 Tampines Street 82",
        "area": "East",
        "hours": "10am - 10pm",
        "lighting": "Until 10pm",
        "pic": "../images/park/park3.jpeg",
        "amenities": [
            "Fountain", "Washroom"
        ],
        "latitude": 1.358175613376079,
        "longtitude": 103.9460209463029,
        "property": "Park"
    },
    {
        "name": "Sebawang Dog Run",
        "address": "Sembawang Rd, Singapore",
        "area": "North",
        "hours": "24/7",
        "lighting": "N/A",
        "pic": "../images/park/park4.jpeg",
        "amenities": [
            "Playground","Washroom"
        ],
        "latitude": 1.4613222312273142, 
        "longtitude": 103.8360921046562,
        "property": "Park"
    },
    {
        "name": "Yishun Park Dog Run",
        "address": "Yishun Ave 4, Yishun Central",
        "area": "North",
        "hours": "24/7",
        "lighting": "7pm - 7am",
        "pic": "../images/park/park5.jpeg",
        "amenities": [
            "Fountain"
        ],
        "latitude": 1.4294822462314574,
        "longtitude": 103.84160494023173,
        "property": "Park"
    },
    {
        "name": "Potong Pasir Ave 1 Dog Run",
        "address": "Block 102 Potong Pasir Avenue 1",
        "area": "Central",
        "hours": "24/7",
        "lighting": "N/A",
        "pic": "../images/park/park6.jpeg",
        "amenities": [
            "Playground"
        ],
        "latitude": 1.3332706248519737, 
        "longtitude": 103.86894408552565,
        "property": "Park"
    },
    {
        "name": "Pasir Ris Street 51 Dog Run",
        "address": "Pasir Ris Street 51",
        "area": "East",
        "hours": "24/7",
        "lighting": "N/A",
        "pic": "../images/park/park7.jpeg",
        "amenities": [
            "Playground", "Washroom"
        ],
        "latitude": 1.368662268108972,
        "longtitude": 103.96222909854168,
        "property": "Park"
    },
    {
        "name": "Mariam Way Dog Run",
        "address": "377 Old Tampines Rd",
        "area": "East",
        "hours": "24/7",
        "lighting": "N/A",
        "pic": "../images/park/park8.jpeg",
        "amenities": [
            "Playground","Washroom"
        ],
        "latitude": 1.365011927994062,
        "longtitude": 103.96950015247067,
        "property": "Park"

    },
    {
        "name": "Interim Park Dog Run",
        "address": "Lengkong Enam, Interim Park",
        "area": "East",
        "hours": "24/7",
        "lighting": "N/A",
        "pic": "../images/park/park9.jpeg",
        "amenities": [
            "Fountain", "Washroom"
        ],
        "latitude": 1.3309099300154223, 
        "longtitude": 103.92693320343074,
        "property": "Park"
    },
    {
        "name": "Bedok Town Park Dog Run",
        "address": "Bedok North Ave 3",
        "area": "East",
        "hours": "24/7",
        "lighting": "N/A",
        "pic": "../images/park/park10.jpeg",
        "amenities": [
            "Fountain", "Washroom"
        ],
        "latitude": 1.3359005913903679,
        "longtitude": 103.92653114783666,
        "property": "Park"
    },
    {
        "name": "Tiong Bahru Dog Run",
        "address": "3A Sit Wah Road",
        "area": "Central",
        "hours": "24/7",
        "lighting": "N/A",
        "pic": "../images/park/park11.jpeg",
        "amenities": [
            "Fountain" , "Washroom"
        ],
        "latitude": 1.286768144084842, 
        "longtitude": 103.83723975701105,
        "property": "Park"
    },
    {
        "name": "Clementi Woods Park Dog Run",
        "address": "Clementi Woods Park, West Coast Rd",
        "area": "West",
        "hours": "24/7",
        "lighting": "N/A",
        "pic": "../images/park/park12.jpeg",
        "amenities": [
            "Fountain", "Playground"
        ],
        "latitude": 1.3070184473838926, 
        "longtitude": 103.78684842227442,
        "property": "Park"
    },
    {
        "name": "Koon Seng Park Dog Run",
        "address": "Koon Seng Road and Tembeling Road",
        "area": "East",
        "hours": "24/7",
        "lighting": "N/A",
        "pic": "../images/park/park13.jpeg",
        "amenities": [
            "Fountain"
        ],
        "latitude": 1.3111320476810617,
        "longtitude": 103.90343645025615,
        "property": "Park"
    },
    {
        "name": "Jurong Lake Park Dog Run",
        "address": "Yuan Ching Road and Japanese Garden Road",
        "area": "West",
        "hours": "9am - 10pm",
        "lighting": "N/A",
        "pic": "../images/park/park14.jpeg",
        "amenities": [
            "Fountain"
        ],
        "latitude": 1.3337629981654435, 
        "longtitude": 103.72754365374226,
        "property": "Park"
    },
    {
        "name": "West Coast Park Dog Run",
        "address": "West Coast Park",
        "area": "West",
        "hours": "24/7",
        "lighting": "N/A",
        "pic": "../images/park/park15.jpeg",
        "amenities": [
            "Fountain", "Playground"
        ],
        "latitude": 1.291165131436203,  
        "longtitude": 103.77495876379946,
        "property": "Park"
    },
    {
        "name": "Kim Seng Park",
        "address": "River Valley Green",
        "area": "Central",
        "hours": "24/7",
        "lighting": "N/A",
        "pic": "../images/park/park16.jpeg",
        "amenities": [
            "Washroom"
        ],
        "latitude": 1.293964871836445, 
        "longtitude": 103.8369710170216,
        "property": "Park"
    },
    {
        "name": "Katong Park Dog Run",
        "address": "Katong Park",
        "area": "East",
        "hours": "24/7",
        "lighting": "N/A",
        "pic": "../images/park/park17.jpeg",
        "amenities": [
            "Fountain", "Playground", "Washroom"
        ],
        "latitude": 1.2966686512880863,
        "longtitude": 103.88539444389426,
        "property": "Park"
    },
    {
        "name": "East Coast Park Dog Run",
        "address": "E Coast Park Service Rd",
        "area": "East",
        "hours": "24/7",
        "lighting": "N/A",
        "pic": "../images/park/park18.jpeg",
        "amenities": [
            "Fountain", "Playground"
        ],
        "latitude": 1.3012615480351248, 
        "longtitude": 103.909883178204,
        "property": "Park"
    },
    {
        "name": "Our Space @ Tai Gin",
        "address": "16 Tai Gin Rd",
        "area": "Central",
        "hours": "24/7",
        "lighting": "N/A",
        "pic": "../images/park/park19.jpeg",
        "amenities": [
            "Fountain"
        ],
        "latitude": 1.3288101528987881, 
        "longtitude": 103.84716390351184,
        "property": "Park"
    },    
    {
        "name": "Simpang Bedok Dog Run",
        "address": "Jalan Pari Burong playground, 91 Jln Pari Burong",
        "area": "East",
        "hours": "24/7",
        "lighting": "N/A",
        "pic": "../images/park/park20.jpeg",
        "amenities": [
            "Fountain", "Playground"
        ],
        "latitude": 1.3344575724350702, 
        "longtitude": 103.95071097745847,
        "property": "Park"
    }   
    ]   
}
