{
    "dog_parks": [
    {
        "name": "Bishan Ang Mo Kio Park Dog Run",
        "address": "1384 Ang Mo Kio Ave 1",
        "area": "North",
        "hours": "24/7",
        "lighting": "7pm - 10pm",
        "latitude": 1.3633964754734702,
        "longtitude": 103.84358391789335
    },
    {
        "name": "Bishan Summit Dog Park",
        "address": "119 Bishan Street 12",
        "area": "Central",
        "hours": "24/7",
        "lighting": "7pm - 10pm",
        "latitude": 1.3476979681227628,  
        "longtitude": 103.85085050852403
    },
    {
        "name": "Tampines Central Park Dog Run",
        "address": "Block 856 Tampines Street 82",
        "area": "East",
        "hours": "10am - 10pm",
        "lighting": "Until 10pm",
        "latitude": 1.358175613376079,
        "longtitude": 103.9460209463029
    },
    {
        "name": "Sebawang Dog Run",
        "address": "Sembawang Rd, Singapore",
        "area": "North",
        "hours": "24/7",
        "lighting": "N/A",
        "latitude": 1.4642036315025686,
        "longtitude": 103.83475364371002
    },
    {
        "name": "Yishun Park Dog Run",
        "address": "Yishun Ave 4, Yishun Central, Yishun Ave 11 and Yishun Ring Road",
        "area": "North",
        "hours": "24/7",
        "lighting": "7pm - 7am",
        "latitude": 1.4294822462314574,
        "longtitude": 103.84160494023173
    },
    {
        "name": "Potong Pasir Ave 1 Dog Run",
        "address": "Block 102 Potong Pasir Avenue 1",
        "area": "Central",
        "hours": "24/7",
        "lighting": "N/A",
        "latitude": 1.3332706248519737, 
        "longtitude": 103.86894408552565
    },
    {
        "name": "Punggol Park Dog Run",
        "address": "471B Upper Serangoon Cres",
        "area": "Northeast",
        "hours": "24/7",
        "lighting": "7pm - 7am",
        "latitude": 1.3815770340601323,  
        "longtitude": 103.91207307396105
    },
    {
        "name": "Pasir Ris Street 51 Dog Run",
        "address": "Pasir Ris Street 51",
        "area": "East",
        "hours": "24/7",
        "lighting": "N/A",
        "latitude": 1.368662268108972,
        "longtitude": 103.96222909854168
    },
    {
        "name": "Mariam Way Dog Run",
        "address": "377 Old Tampines Rd",
        "area": "East",
        "hours": "24/7",
        "lighting": "N/A",
        "latitude": 1.365011927994062,
        "longtitude": 103.96950015247067

    },
    {
        "name": "Interim Park Dog Run",
        "address": "Lengkong Enam, Interim Park",
        "area": "East",
        "hours": "24/7",
        "lighting": "N/A",
        "latitude": 1.3309099300154223, 
        "longtitude": 103.92693320343074
    },
    {
        "name": "Bedok Town Park Dog Run",
        "address": "Bedok North Ave 3",
        "area": "East",
        "hours": "24/7",
        "lighting": "N/A",
        "latitude": 1.3359005913903679,
        "longtitude": 103.92653114783666
    },
    {
        "name": "Tiong Bahru Dog Run",
        "address": "3A Sit Wah Road",
        "area": "Central",
        "hours": "24/7",
        "lighting": "N/A",
        "latitude": 1.286768144084842, 
        "longtitude": 103.83723975701105
    },
    {
        "name": "Clementi Woods Park Dog Run",
        "address": "Clementi Woods Park, West Coast Rd",
        "area": "West",
        "hours": "24/7",
        "lighting": "N/A",
        "latitude": 1.3070184473838926, 
        "longtitude": 103.78684842227442
    },
    {
        "name": "Koon Seng Park Dog Run",
        "address": "Intersection of Koon Seng Road and Tembeling Road",
        "area": "East",
        "hours": "24/7",
        "lighting": "N/A",
        "latitude": 1.3111320476810617,
        "longtitude": 103.90343645025615
    },
    {
        "name": "Jurong Lake Park Dog Run",
        "address": "Yuan Ching Road and Japanese Garden Road",
        "area": "West",
        "hours": "9am - 10pm",
        "lighting": "N/A",
        "latitude": 1.3337629981654435, 
        "longtitude": 103.72754365374226
    },
    {
        "name": "West Coast Park Dog Run",
        "address": "Yuan Ching Road and Japanese Garden Road",
        "area": "West",
        "hours": "24/7",
        "lighting": "N/A",
        "latitude": 1.2909314721638643, 
        "longtitude": 103.7808301481911
    },
    {
        "name": "Holland Village Dog Run",
        "address": "Blk 31A Holland Ave",
        "area": "Central",
        "hours": "24/7",
        "lighting": "N/A",
        "latitude": 1.3126338253601726, 
        "longtitude": 103.80871516190463
    },
    {
        "name": "Katong Park Dog Run",
        "address": "Katong Park",
        "area": "East",
        "hours": "24/7",
        "lighting": "N/A",
        "latitude": 1.2966686512880863,
        "longtitude": 103.88539444389426
    },
    {
        "name": "East Coast Park Dog Run",
        "address": "E Coast Park Service Rd",
        "area": "East",
        "hours": "24/7",
        "lighting": "N/A",
        "latitude": 1.3012615480351248, 
        "longtitude": 103.909883178204
    },
    {
        "name": "Our Space @ Tai Gin",
        "address": "16 Tai Gin Rd",
        "area": "Central",
        "hours": "24/7",
        "lighting": "N/A",
        "latitude": 1.3288101528987881, 
        "longtitude": 103.84716390351184
    },    
    {
        "name": "Sunny Heights Dog Park",
        "address": "110 Turf Club Road",
        "area": "West",
        "hours": "1pm - 6pm",
        "lighting": "N/A",
        "latitude": 1.3288101528987881, 
        "longtitude": 103.84716390351184
    },    
    {
        "name": "Simpang Bedok Dog Run",
        "address": "Jalan Pari Burong playground, 91 Jln Pari Burong",
        "area": "East",
        "hours": "24/7",
        "lighting": "N/A",
        "latitude": 1.3344575724350702, 
        "longtitude": 103.95071097745847
    }   
    ]   
}
